{
   "locations":[
      {
         "address":"4510 Paradise Rd",
         "city":"Las Vegas",
         "state":"NV",
         "zip":"89169",
         "country":"USA",
         "name":"Hofbrauhaus",
         "location":{
            "lat":36.107736,
            "lng":-115.151616
         }
      },
      {
         "address":"2771 S Industrial Rd",
         "city":"Las Vegas",
         "state":"NV",
         "zip":"89109",
         "country":"USA",
         "name":"Battlefield Vegas",
         "location":{
            "lat":36.139171,
            "lng":-115.168682
         }
      },
      {
         "address":"6405 Ensworth S",
         "city":"Las Vegas",
         "state":"NV",
         "zip":"89119",
         "country":"USA",
         "name":"Carroll Shelby Museum",
         "location":{
            "lat":36.072177,
            "lng":-115.179944
         }
      },
      {
         "address":"3377 S Las Vegas Blvd",
         "city":"Las Vegas",
         "state":"NV",
         "zip":"89109",
         "country":"USA",
         "name":"Madame Tussauds Las Vegas",
         "location":{
            "lat":36.121336,
            "lng":-115.171110
         }
      },
      {
         "address":"3300 S Las Vegas Blvd",
         "city":"Las Vegas",
         "state":"NV",
         "zip":"89109",
         "country":"USA",
         "name":"Treasure Island",
         "location":{
            "lat":36.124647,
            "lng":-115.170851
         }
      },
      {
         "address":"2000 S Las Vegas Blvd",
         "city":"Las Vegas",
         "state":"NV",
         "zip":"89104",
         "country":"USA",
         "name":"Stratosphere",
         "location":{
            "lat":36.147316,
            "lng":-115.155822
         }
      },
      {
         "address":"129 Fremont Street Experience",
         "city":"Las Vegas",
         "state":"NV",
         "zip":"89101",
         "country":"USA",
         "name":"Fremont Street Experience",
         "location":{
            "lat":36.1708,
            "lng":-115.1443
         }
      },
      {
         "address":"1610 E Tropicana Ave",
         "city":"Las Vegas",
         "state":"NV",
         "zip":"89119",
         "country":"USA",
         "name":"Pinball Hall of Fame",
         "location":{
            "lat":36.101349,
            "lng":-115.130567
         }
      },
      {
         "address":"3600 S Las Vegas Blvd",
         "city":"Las Vegas",
         "state":"NV",
         "zip":"89109",
         "country":"USA",
         "name":"Bellagio Hotel and Casino",
         "location":{
            "lat":36.112972,
            "lng":-115.174151
         }
      },
      {
         "address":"3655 S Las Vegas Blvd",
         "city":"Las Vegas",
         "state":"NV",
         "zip":"89109",
         "country":"USA",
         "name":"Eiffel Tower Experience",
         "location":{
            "lat":36.112668,
            "lng":-115.171834
         }
      },
      {
         "address":"3411 S Las Vegas Blvd",
         "city":"Las Vegas",
         "state":"NV",
         "zip":"89109",
         "country":"USA",
         "name":"White Castle",
         "location":{
            "lat":36.120871,
            "lng":-115.171890
         }
      },
      {
         "address":"3377 S Las Vegas Blvd #2120",
         "city":"Las Vegas",
         "state":"NV",
         "zip":"89109",
         "country":"USA",
         "name":"Sin City Brewing Co.",
         "location":{
            "lat":36.121469,
            "lng":-115.169103
         }
      },
      {
         "address":"770 N Las Vegas Blvd",
         "city":"Las Vegas",
         "state":"NV",
         "zip":"89101",
         "country":"USA",
         "name":"Neon Museum",
         "location":{
            "lat":36.176942,
            "lng":-115.135276
         }
      },
      {
         "address":"650 Parkway",
         "city":"Gatlinburg",
         "state":"TN",
         "zip":"37738",
         "country":"USA",
         "name":"Ole Smoky Distillery",
         "location":{
            "lat":35.712451,
            "lng":-83.515268
         }
      },
      {
         "address":"805 Parkway",
         "city":"Gatlinburg",
         "state":"TN",
         "zip":"37738",
         "country":"USA",
         "name":"Sugarlands Distilling Company",
         "location":{
            "lat":35.711606,
            "lng":-83.518727
         }
      },
      {
         "address":"914 Parkway",
         "city":"Gatlinburg",
         "state":"TN",
         "zip":"37738",
         "country":"USA",
         "name":"Hollywood Star Cars Museum",
         "location":{
            "lat":35.710571,
            "lng":-83.519130
         }
      },
      {
         "address":"519 Parkway",
         "city":"Gatlinburg",
         "state":"TN",
         "zip":"37738",
         "country":"USA",
         "name":"Doc Collier Moonshine",
         "location":{
            "lat":35.714017,
            "lng":-83.511033
         }
      },
      {
         "address":"542 Parkway",
         "city":"Gatlinburg",
         "state":"TN",
         "zip":"37738",
         "country":"USA",
         "name":"Cooter's Place in Gatlinburg",
         "location":{
            "lat":35.713349,
            "lng":-83.511323
         }
      },
      {
         "address":"2041 Parkway",
         "city":"Pigeon Forge",
         "state":"TN",
         "zip":"37863",
         "country":"USA",
         "name":"Krystal",
         "location":{
            "lat":35.823125,
            "lng":-83.576768
         }
      }
   ]
}